City_ID,City,Lat,Lng,Max Temp,Humidity,Cloudiness,Wind Speed,Country,Date
0,yellowknife,62.456,-114.3525,-20.71,65,100,4.63,CA,1670205320
1,ayan,56.45,138.1667,-13.74,58,100,5.68,RU,1670205605
2,kruisfontein,-34.0033,24.7314,14.02,86,97,3.44,ZA,1670205606
3,saint-georges,12.0564,-61.7485,24.05,83,54,1.96,GD,1670205607
4,weston,26.1004,-80.3998,24.43,77,95,3.4,US,1670205606
5,norman wells,65.282,-126.8329,-29.98,76,20,2.06,CA,1670205394
6,east london,-33.0153,27.9116,20.06,93,100,7.02,ZA,1670205363
7,hobart,-42.8794,147.3294,12.37,91,75,11.32,AU,1670205584
8,carnarvon,-24.8667,113.6333,23.89,63,5,6.07,AU,1670205609
9,saint george,37.1041,-113.5841,13.86,56,21,0.89,US,1670205575
10,eldorado,-23.7869,-54.2836,21.71,95,88,1.41,BR,1670205610
11,bredasdorp,-34.5322,20.0403,12.91,76,14,1.7,ZA,1670205361
12,bitkine,11.9801,18.2138,21.64,15,0,3.0,TD,1670205611
13,kaeo,-35.1,173.7833,21.51,56,0,4.73,NZ,1670205611
14,phan thiet,10.9333,108.1,27.33,73,97,2.92,VN,1670205353
15,kapaa,22.0752,-159.319,25.99,78,17,2.68,US,1670205612
16,virginia beach,36.8529,-75.978,6.12,63,9,3.92,US,1670205613
17,srikakulam,18.3,83.9,22.08,83,5,2.27,IN,1670205614
18,new norfolk,-42.7826,147.0587,12.18,65,100,2.24,AU,1670205614
19,gelemso,8.8167,40.5167,13.32,51,9,1.14,ET,1670205615
20,san joaquin,37.9333,-121.3011,13.4,68,57,1.49,US,1670205339
21,san pedro,14.35,121.0167,29.08,79,100,4.83,PH,1670205616
22,isiolo,0.3546,37.5822,18.13,78,50,1.19,KE,1670205617
23,ushuaia,-54.8,-68.3,6.81,65,40,6.17,AR,1670205580
24,avarua,-21.2078,-159.775,28.03,83,75,2.57,CK,1670205618
25,ballina,-28.8667,153.5667,27.1,67,2,3.59,AU,1670205618
26,lasa,46.6166,10.7002,5.49,98,98,1.73,IT,1670205071
27,comodoro rivadavia,-45.8667,-67.5,20.92,32,0,8.23,AR,1670205420
28,bethel,41.3712,-73.414,1.46,72,0,0.83,US,1670205538
29,baruun-urt,46.6806,113.2792,-18.71,76,3,4.51,MN,1670205081
30,chokurdakh,70.6333,147.9167,-39.93,100,96,1.89,RU,1670205384
31,henties bay,-22.116,14.2845,14.13,92,8,2.39,NA,1670205620
32,richards bay,-28.783,32.0377,22.06,93,100,2.89,ZA,1670205546
33,qaanaaq,77.484,-69.3632,-16.99,69,100,3.86,GL,1670205621
34,bluff,-46.6,168.3333,10.45,67,100,1.21,NZ,1670205622
35,vila velha,-20.3297,-40.2925,22.19,95,100,3.89,BR,1670205623
36,dzilam gonzalez,21.2833,-88.9333,23.81,74,0,3.31,MX,1670205623
37,port hardy,50.6996,-127.4199,-1.9,100,20,1.54,CA,1670205482
38,tessalit,20.1986,1.0114,23.23,17,100,5.51,ML,1670205624
39,longyearbyen,78.2186,15.6401,-1.09,93,100,11.32,SJ,1670205625
40,punta arenas,-53.15,-70.9167,6.06,75,20,8.75,CL,1670205278
41,lebu,-37.6167,-73.65,13.15,88,1,5.12,CL,1670205366
42,mar del plata,-38.0023,-57.5575,18.01,90,0,3.09,AR,1670205392
43,busselton,-33.65,115.3333,20.04,57,100,3.49,AU,1670205626
44,puerto ayora,-0.7393,-90.3518,21.42,89,56,1.79,EC,1670205627
45,geraldton,-28.7667,114.6,24.23,53,0,5.66,AU,1670205628
46,tondano,1.3038,124.9112,24.05,71,100,0.79,ID,1670205628
47,mataura,-46.1927,168.8643,10.27,59,100,1.68,NZ,1670205629
48,thompson,55.7435,-97.8558,-25.03,93,100,3.45,CA,1670205631
49,eureka,40.8021,-124.1637,9.55,92,100,1.79,US,1670205589
50,saskylakh,71.9167,114.0833,-23.51,96,100,6.55,RU,1670205375
51,dikson,73.5069,80.5464,-1.66,87,100,8.86,RU,1670205386
52,narasannapeta,18.4167,84.05,22.03,82,3,2.12,IN,1670205633
53,leningradskiy,69.3833,178.4167,-10.84,95,100,6.95,RU,1670205635
54,sinop,41.7711,34.8709,6.45,92,100,0.73,TR,1670205635
55,sibolga,1.7427,98.7792,24.11,94,100,0.17,ID,1670205534
56,fortuna,40.5982,-124.1573,9.4,93,100,6.69,US,1670205360
57,chuy,-33.6971,-53.4616,17.68,95,0,2.43,UY,1670205637
58,bengkulu,-3.8004,102.2655,25.15,81,100,0.93,ID,1670205637
59,mahenge,-8.6833,36.7167,16.35,96,100,0.65,TZ,1670205638
60,souillac,-20.5167,57.5167,24.21,78,40,3.6,MU,1670205408
61,santa cruz,-17.8,-63.1667,26.7,65,75,1.03,BO,1670205062
62,rikitea,-23.1203,-134.9692,24.19,81,89,5.18,PF,1670205639
63,yarmouth,41.7057,-70.2286,4.42,69,66,1.79,US,1670205639
64,severo-kurilsk,50.6789,156.125,-5.02,89,93,15.27,RU,1670205640
65,pacific grove,36.6177,-121.9166,12.23,88,37,3.13,US,1670205640
66,meulaboh,4.1363,96.1285,25.14,89,99,3.12,ID,1670205094
67,agbor,6.2518,6.1934,23.17,96,1,1.3,NG,1670205641
68,hilo,19.7297,-155.09,25.14,90,59,2.24,US,1670205605
69,nikolskoye,59.7035,30.7861,-4.06,94,100,3.38,RU,1670205345
70,ambulu,-8.345,113.6058,29.19,68,47,1.18,ID,1670205642
71,albany,42.6001,-73.9662,-0.23,77,1,1.94,US,1670205521
72,hanover,52.3705,9.7332,2.77,93,100,3.09,DE,1670205643
73,khatanga,71.9667,102.5,-17.72,98,100,1.71,RU,1670205377
74,hermanus,-34.4187,19.2345,14.28,76,14,1.83,ZA,1670205643
75,jishui,33.7333,115.4,5.13,37,6,2.1,CN,1670205645
76,faanui,-16.4833,-151.75,26.95,69,3,6.23,PF,1670205054
77,cape town,-33.9258,18.4232,16.82,65,2,2.68,ZA,1670205646
78,liku,-0.7275,119.8922,30.31,60,100,0.7,ID,1670205646
79,dingle,10.9995,122.6711,25.23,92,100,3.54,PH,1670205647
80,butaritari,3.0707,172.7902,27.02,79,55,4.71,KI,1670205647
81,jamestown,42.097,-79.2353,-0.16,61,1,3.13,US,1670205500
82,sur,22.5667,59.5289,22.66,58,0,2.42,OM,1670205648
83,georgetown,5.4112,100.3354,28.83,83,20,0.0,MY,1670205606
84,kenai,60.5544,-151.2583,-2.7,95,40,0.0,US,1670205427
85,vaini,-21.2,-175.2,26.09,94,75,5.66,TO,1670205368
86,sitka,57.0531,-135.33,1.02,75,13,1.81,US,1670205421
87,iracoubo,5.4802,-53.2011,24.18,89,100,1.63,GF,1670205650
88,saint-philippe,-21.3585,55.7679,22.77,82,31,3.84,RE,1670205650
89,fort nelson,58.8053,-122.7002,-9.47,65,100,0.38,CA,1670205629
90,avera,33.194,-82.5271,12.99,56,99,2.04,US,1670205651
91,fort-shevchenko,44.5086,50.263,-4.98,64,0,5.41,KZ,1670205651
92,pangody,65.85,74.4859,-4.91,94,100,7.16,RU,1670205530
93,port-gentil,-0.7193,8.7815,26.33,84,100,4.48,GA,1670205089
94,pitimbu,-7.4706,-34.8086,26.33,81,17,5.15,BR,1670205067
95,pombas,17.1503,-25.0201,20.7,73,97,3.06,CV,1670205653
96,hermiston,45.8404,-119.2895,-1.99,93,100,0.31,US,1670205459
97,tuktoyaktuk,69.4541,-133.0374,-27.0,76,20,7.2,CA,1670205422
98,powell river,49.8496,-124.5361,1.71,100,100,1.54,CA,1670205629
99,kavieng,-2.5744,150.7967,27.42,72,100,2.89,PG,1670205654
100,klaksvik,62.2266,-6.589,4.51,76,96,6.93,FO,1670205453
101,emba,48.8264,58.1442,-11.67,93,100,4.22,KZ,1670205655
102,cidreira,-30.1811,-50.2056,21.97,94,72,1.65,BR,1670205061
103,marsh harbour,26.5412,-77.0636,23.0,64,7,4.83,BS,1670205503
104,arlit,18.7369,7.3853,24.08,19,5,2.83,NE,1670205655
105,talnakh,69.4865,88.3972,-4.33,96,100,2.38,RU,1670205376
106,lavrentiya,65.5833,-171.0,0.23,98,100,16.5,RU,1670205364
107,colares,38.7992,-9.4469,13.2,89,100,3.58,PT,1670205439
108,tasiilaq,65.6145,-37.6368,-1.91,66,86,1.28,GL,1670205657
109,puerto escondido,15.85,-97.0667,25.17,63,2,1.83,MX,1670205357
110,nabire,-3.3667,135.4833,30.47,61,90,1.98,ID,1670205657
111,ahipara,-35.1667,173.1667,19.83,58,1,2.25,NZ,1670205111
112,visby,57.6409,18.296,2.81,87,100,4.63,SE,1670205446
113,kahului,20.8947,-156.47,26.65,75,100,2.68,US,1670205658
114,usinsk,65.9939,57.5281,-20.21,100,100,2.87,RU,1670205659
115,broken hill,-31.95,141.4333,27.46,27,79,5.61,AU,1670205659
116,khani,41.9563,42.9566,3.76,85,100,2.45,GE,1670205660
117,vila franca do campo,37.7167,-25.4333,14.23,78,91,1.68,PT,1670205662
118,porto walter,-8.2686,-72.7439,24.08,71,38,0.29,BR,1670205662
119,narsaq,60.9167,-46.05,-6.88,62,100,3.55,GL,1670205663
120,helmsdale,58.1168,-3.6517,3.86,76,100,4.53,GB,1670205663
121,kloulklubed,7.0419,134.2556,29.28,68,98,7.16,PW,1670205664
122,hithadhoo,-0.6,73.0833,27.47,76,100,4.15,MV,1670205665
123,alugan,12.2188,125.4808,28.16,80,100,5.1,PH,1670205666
124,belle fourche,44.6714,-103.8522,5.03,31,100,4.02,US,1670205666
125,guerrero negro,27.9769,-114.0611,17.88,81,100,5.11,MX,1670205667
126,los llanos de aridane,28.6585,-17.9182,19.86,89,100,3.58,ES,1670205513
127,mahebourg,-20.4081,57.7,24.58,76,99,6.1,MU,1670205668
128,keene,42.9337,-72.2781,-0.44,82,0,0.89,US,1670205669
129,ponta do sol,32.6667,-17.1,18.17,76,99,9.18,PT,1670205670
130,gorontalo,0.5412,123.0595,28.27,80,100,0.62,ID,1670205670
131,torbay,47.6666,-52.7314,2.54,86,90,3.13,CA,1670205629
132,ribeira grande,38.5167,-28.7,16.54,75,34,6.26,PT,1670205397
133,koubia,11.5833,-11.9,21.02,77,100,0.62,GN,1670205672
134,mackenzie,55.2999,-123.1698,-12.88,78,100,1.54,CA,1670205632
135,vestmannaeyjar,63.4427,-20.2734,3.51,66,95,6.07,IS,1670205672
136,samarai,-10.6167,150.6667,28.47,69,86,6.14,PG,1670205673
137,pinega,64.7001,43.3936,-10.98,91,99,3.35,RU,1670205673
138,hasaki,35.7333,140.8333,9.22,76,100,8.99,JP,1670205374
139,isiro,2.7739,27.616,19.81,85,100,0.67,CD,1670205674
140,cabo san lucas,22.8909,-109.9124,26.4,74,100,2.23,MX,1670205561
141,egvekinot,66.3167,-179.1667,-5.6,98,100,0.9,RU,1670205093
142,sao desiderio,-12.3633,-44.9733,19.89,94,24,1.53,BR,1670205676
143,ancud,-41.8697,-73.8203,13.13,92,100,5.24,CL,1670205676
144,barrow,71.2906,-156.7887,-5.99,86,100,12.35,US,1670205383
145,shenkursk,62.1091,42.896,-10.66,81,100,3.17,RU,1670205677
146,bytow,54.1706,17.4919,0.12,90,100,4.88,PL,1670205678
147,yate,51.5407,-2.4184,4.87,93,100,0.89,GB,1670205678
148,cabinda,-5.55,12.2,25.06,87,100,1.6,AO,1670205679
149,noumea,-22.2763,166.4572,30.99,99,100,1.17,NC,1670205147
150,parabel,58.6978,81.4825,-26.27,100,62,1.16,RU,1670205680
151,fernandina beach,30.6697,-81.4626,17.77,94,0,0.0,US,1670205681
152,urusha,54.05,122.9,-23.47,87,99,1.3,RU,1670205681
153,tiksi,71.6872,128.8694,-23.66,96,100,5.35,RU,1670205435
154,kudahuvadhoo,2.6708,72.8944,25.85,82,87,2.25,MV,1670205682
155,batticaloa,7.7102,81.6924,25.68,83,100,1.53,LK,1670205683
156,kaitangata,-46.2817,169.8464,13.28,62,100,3.07,NZ,1670205683
157,port elizabeth,-33.918,25.5701,15.16,99,75,7.72,ZA,1670205684
158,oistins,13.0667,-59.5333,23.06,78,24,0.41,BB,1670205684
159,isangel,-19.55,169.2667,29.21,69,98,1.63,VU,1670205685
160,mitsamiouli,-11.3847,43.2844,26.31,81,9,4.13,KM,1670205686
161,koutiala,12.3917,-5.4642,26.07,45,100,2.35,ML,1670205686
162,ust-omchug,61.15,149.6333,-37.67,97,73,0.7,RU,1670205687
163,byron bay,-28.65,153.6167,27.06,62,3,4.25,AU,1670205687
164,nanortalik,60.1432,-45.2371,-0.04,79,100,3.57,GL,1670205484
165,atuona,-9.8,-139.0333,25.34,79,18,8.62,PF,1670205688
166,port macquarie,-31.4333,152.9167,26.05,59,0,5.93,AU,1670205520
167,kosonsoy,41.2561,71.5508,-2.69,98,100,1.07,UZ,1670205689
168,bay-khaak,51.1667,94.5,-30.13,94,23,1.43,RU,1670205690
169,cherskiy,68.75,161.3,-32.84,95,5,2.12,RU,1670205690
170,kang,-23.6752,22.7876,24.5,38,44,2.52,BW,1670205691
171,soe,-9.8607,124.284,27.91,41,100,1.45,ID,1670205691
172,el dorado,38.7666,-120.5177,5.38,95,98,1.84,US,1670205692
173,arraial do cabo,-22.9661,-42.0278,22.72,89,100,12.74,BR,1670205692
174,dakar,14.6937,-17.4441,23.07,88,0,1.03,SN,1670205600
175,mabaruma,8.2,-59.7833,21.38,99,100,1.04,GY,1670205496
176,beyneu,45.3167,55.2,-9.17,53,0,1.88,KZ,1670205693
177,cervo,43.6702,-7.4101,9.32,76,90,2.66,ES,1670205694
178,sulangan,11.1373,123.7228,26.52,83,100,4.83,PH,1670205694
179,manakara,-22.1333,48.0167,22.88,86,100,1.63,MG,1670205695
180,azul,-36.777,-59.8585,20.0,45,3,5.25,AR,1670205634
181,berlevag,70.8578,29.0864,-5.03,68,53,1.54,NO,1670205696
182,inuvik,68.3499,-133.7218,-22.58,77,20,5.66,CA,1670205697
183,quatre cocos,-20.2078,57.7625,24.49,75,92,6.28,MU,1670205447
184,hirara,24.8,125.2833,24.57,76,26,3.14,JP,1670205697
185,grindavik,63.8424,-22.4338,4.26,81,100,4.12,IS,1670205698
186,saldanha,-33.0117,17.9442,16.04,80,0,6.68,ZA,1670205698
187,castro,-24.7911,-50.0119,18.22,97,100,1.42,BR,1670205699
188,korla,41.7597,86.1469,-5.26,35,100,0.57,CN,1670205699
189,russell,32.3502,-85.1999,15.11,86,97,1.47,US,1670205700
190,komyshuvakha,47.7176,35.5288,-6.32,59,0,7.04,UA,1670205700
191,clyde river,70.4692,-68.5914,-14.87,85,100,12.86,CA,1670205701
192,takoradi,4.8845,-1.7554,26.13,85,38,3.49,GH,1670205411
193,redmond,47.674,-122.1215,3.45,92,100,0.89,US,1670205537
194,svetlogorsk,52.6333,29.7333,-8.43,82,100,4.05,BY,1670205464
195,touros,-5.1989,-35.4608,25.51,76,9,5.79,BR,1670205479
196,nemuro,43.3236,145.575,-1.73,46,34,8.47,JP,1670205448
197,batemans bay,-35.7167,150.1833,21.72,46,64,0.89,AU,1670205431
198,ban chang,12.7254,101.0553,27.77,65,40,2.57,TH,1670205703
199,iqaluit,63.7506,-68.5145,-2.39,100,100,2.88,CA,1670205619
200,kavaratti,10.5669,72.642,28.18,69,100,3.6,IN,1670205105
201,esperance,-33.8667,121.9,17.94,73,100,5.46,AU,1670205450
202,mishan,45.55,131.8833,-12.54,71,2,4.96,CN,1670205704
203,hickory,35.7332,-81.3412,5.39,78,0,0.0,US,1670205705
204,namibe,-15.1961,12.1522,20.83,82,100,1.42,AO,1670205705
205,rorvik,64.8621,11.2373,3.06,93,100,6.17,NO,1670205705
206,houma,29.5958,-90.7195,20.56,92,100,1.34,US,1670205465
207,japura,-0.3167,102.35,27.26,78,100,0.88,ID,1670205706
208,bambous virieux,-20.3428,57.7575,24.56,75,98,6.23,MU,1670205707
209,nago,26.5881,127.9761,25.25,76,19,1.13,JP,1670205708
210,poum,-20.2333,164.0167,27.04,82,99,8.62,NC,1670205708
211,elizabeth city,36.2946,-76.2511,5.01,87,63,2.47,US,1670205709
212,biscarrosse,44.3945,-1.1672,1.97,93,0,1.03,FR,1670205709
213,nhulunbuy,-12.2333,136.7667,32.34,62,40,5.14,AU,1670205684
214,namatanai,-3.6667,152.4333,28.08,75,99,2.9,PG,1670205710
215,cockburn town,21.4612,-71.1419,25.79,61,47,7.26,TC,1670205602
216,pitiquito,30.7,-112.0833,19.53,77,100,0.99,MX,1670205621
217,marawi,7.9986,124.2928,25.81,73,100,2.18,PH,1670205711
218,upernavik,72.7868,-56.1549,-3.94,69,100,4.1,GL,1670205711
219,tres arroyos,-38.3739,-60.2798,13.37,82,15,3.41,AR,1670205712
220,bud,39.447,-86.1758,0.53,64,6,2.69,US,1670205712
221,ternate,0.8,127.4,28.01,73,100,1.45,ID,1670205479
222,kachug,53.9606,105.8817,-22.22,98,55,1.09,RU,1670205713
223,mana,5.6592,-53.7767,23.95,90,100,1.18,GF,1670205714
224,arman,59.7,150.1667,-21.58,79,95,3.8,RU,1670205714
225,isilkul,54.9109,71.2728,-21.15,99,16,1.83,RU,1670205715
226,rawson,-43.3002,-65.1023,19.05,43,27,8.58,AR,1670205715
227,mecca,21.4267,39.8261,23.47,81,70,1.85,SA,1670205465
228,orchard homes,46.8633,-114.0484,-10.23,85,100,0.0,US,1670205716
229,alofi,-19.0595,-169.9187,26.65,71,69,1.11,NU,1670205717
230,olafsvik,64.8945,-23.7142,5.96,79,98,2.8,IS,1670205717
231,shimoda,34.6667,138.95,12.2,79,99,7.0,JP,1670205448
232,road town,18.4167,-64.6167,25.02,73,20,2.57,VG,1670205719
233,manihari,25.35,87.6333,16.91,47,4,2.14,IN,1670205617
234,katsuura,35.1333,140.3,12.43,83,100,8.76,JP,1670205719
235,athabasca,54.7169,-113.2854,-9.77,74,75,5.59,CA,1670205582
236,izhma,65.0083,53.9113,-23.67,99,6,1.49,RU,1670205720
237,basoko,1.2391,23.616,21.3,92,98,1.48,CD,1670205721
238,tautira,-17.7333,-149.15,25.97,80,74,7.03,PF,1670205721
239,dunedin,-45.8742,170.5036,12.67,74,97,2.96,NZ,1670205722
240,padang,-0.9492,100.3543,26.03,81,100,1.3,ID,1670205722
241,aklavik,68.2191,-135.0107,-24.54,96,57,4.17,CA,1670205723
242,airai,-8.9266,125.4092,25.35,34,96,0.72,TL,1670205723
243,bongandanga,1.5,21.05,20.92,96,100,1.58,CD,1670205724
244,opuwo,-18.0607,13.84,19.67,43,31,2.2,NA,1670205724
245,kodiak,57.79,-152.4072,3.73,87,75,3.6,US,1670205443
246,zhigansk,66.7697,123.3711,-28.22,99,99,0.37,RU,1670205725
247,chapais,49.7834,-74.8492,-10.12,93,100,3.27,CA,1670205468
248,abu zabad,12.35,29.25,20.92,39,90,5.8,SD,1670205726
249,jian,27.1172,114.9793,6.36,85,100,3.44,CN,1670205717
250,pisco,-13.7,-76.2167,19.45,82,0,4.63,PE,1670205727
251,rovaniemi,66.5,25.7167,-6.33,93,100,2.06,FI,1670205728
252,zarasai,55.7333,26.25,-5.13,86,100,3.63,LT,1670205728
253,lompoc,34.6391,-120.4579,14.32,89,80,0.45,US,1670205631
254,ilulissat,69.2167,-51.1,3.01,60,75,7.2,GL,1670205729
255,humboldt,40.6665,-123.9178,4.51,94,100,2.69,US,1670205446
256,grand-lahou,5.1367,-5.0242,26.0,86,23,3.04,CI,1670205730
257,tuatapere,-46.1333,167.6833,13.34,73,100,2.22,NZ,1670205730
258,tagusao,9.1924,117.8141,28.12,77,100,3.1,PH,1670205731
259,itarema,-2.9248,-39.9167,26.23,76,83,8.23,BR,1670205731
260,novobirilyussy,56.9514,90.6661,-25.84,99,5,1.26,RU,1670205732
261,yumen,40.2833,97.2,-10.52,81,17,3.1,CN,1670205733
262,sao gabriel da cachoeira,-0.1303,-67.0892,22.18,99,100,0.31,BR,1670205733
263,saint-joseph,-21.3667,55.6167,22.21,81,13,3.52,RE,1670205734
264,saint-leu,-21.15,55.2833,23.46,76,11,0.73,RE,1670205734
265,caravelas,-17.7125,-39.2481,23.09,75,100,2.94,BR,1670205735
266,kamenka,51.3223,42.7678,-10.01,68,0,2.12,RU,1670205479
267,ponta delgada,37.7333,-25.6667,14.4,82,40,2.57,PT,1670205441
268,mount gambier,-37.8333,140.7667,14.88,61,99,5.65,AU,1670205736
269,jalu,29.0331,21.5482,14.71,55,5,3.48,LY,1670205737
270,lodja,-3.4833,23.4333,18.98,99,100,0.8,CD,1670205737
271,constitucion,-35.3333,-72.4167,13.17,82,0,5.77,CL,1670205738
272,husavik,66.0449,-17.3389,0.83,71,92,3.09,IS,1670205738
273,altamirano,16.8833,-92.15,11.33,98,16,0.05,MX,1670205739
274,ostrovnoy,68.0531,39.5131,-4.88,89,100,7.37,RU,1670205739
275,mackay,-21.15,149.2,26.27,61,0,4.06,AU,1670205740
276,gamba,-2.65,10.0,24.53,92,97,2.78,GA,1670205741
277,stornoway,58.2093,-6.3865,4.98,83,40,2.57,GB,1670205741
278,fredericksburg,38.3032,-77.4605,2.55,74,0,0.0,US,1670205471
279,payakumbuh,-0.2202,100.6308,23.67,83,100,0.65,ID,1670205742
280,tahta,26.7693,31.5021,14.64,76,0,4.97,EG,1670205743
281,luderitz,-26.6481,15.1594,15.15,72,0,7.47,NA,1670205743
282,aksu,41.1231,80.2644,-5.54,32,100,1.27,CN,1670205627
283,sisimiut,66.9395,-53.6735,0.0,68,100,6.32,GL,1670205744
284,bundu,23.1833,85.5833,15.12,45,1,1.47,IN,1670205744
285,port hedland,-20.3167,118.5667,41.03,14,12,6.17,AU,1670205745
286,conde,-7.2597,-34.9075,24.09,82,14,4.41,BR,1670205745
287,kerema,-7.9631,145.7785,29.13,63,99,3.3,PG,1670205746
288,saint-francois,46.4154,3.9054,2.69,93,100,1.03,FR,1670205454
289,bani walid,31.7566,13.9942,15.17,51,8,2.2,LY,1670205747
290,merauke,-8.4667,140.3333,29.99,62,100,2.52,ID,1670205748
291,bassar,9.25,0.7833,24.22,32,34,2.02,TG,1670205748
292,aliwal north,-30.6937,26.7114,16.24,47,100,7.12,ZA,1670205748
293,morbegno,46.1383,9.57,9.17,100,100,1.49,IT,1670205749
294,ayagoz,47.9714,80.4392,-19.08,100,100,1.77,KZ,1670205749
295,prince rupert,54.3161,-130.3201,0.58,65,0,1.59,CA,1670205750
296,george,-33.963,22.4617,14.97,75,72,2.97,ZA,1670205750
297,grimshaw,56.1834,-117.6027,-11.8,89,100,1.48,CA,1670205751
298,kango,0.1943,10.0951,22.84,98,13,0.52,GA,1670205751
299,funtua,11.5233,7.3081,20.02,31,0,4.55,NG,1670205752
300,ketchikan,55.3422,-131.6461,-0.61,80,3,3.3,US,1670205753
301,jablah,35.3614,35.9256,16.22,60,0,2.42,SY,1670205753
302,monroe,43.1501,-77.6831,1.82,61,20,4.63,US,1670205753
303,riverton,40.5219,-111.9391,9.76,68,75,1.79,US,1670205688
304,lagoa,39.05,-27.9833,15.38,67,62,4.1,PT,1670205754
305,bontang,0.1333,117.5,28.33,72,97,2.45,ID,1670205755
306,kiruna,67.8557,20.2251,-7.49,86,100,4.63,SE,1670205755
307,baglan,36.1307,68.7083,2.36,55,100,1.82,AF,1670205756
308,sangar,63.9242,127.4739,-29.82,93,100,5.54,RU,1670205756
309,mitchelstown,52.2658,-8.2681,6.13,86,100,3.23,IE,1670205757
310,port alfred,-33.5906,26.891,17.88,89,100,0.45,ZA,1670205757
311,hervey bay,-25.2986,152.8535,25.01,65,34,4.56,AU,1670205758
312,lorengau,-2.0226,147.2712,28.5,72,82,2.15,PG,1670205758
313,lubben,51.95,13.9,3.47,92,100,2.57,DE,1670205759
314,coquimbo,-29.9533,-71.3436,15.85,94,75,2.06,CL,1670205196
315,severo-yeniseyskiy,60.3725,93.0408,-21.63,99,100,1.93,RU,1670205759
316,vanavara,60.34,102.2797,-13.55,89,100,5.06,RU,1670205680
317,chandbali,20.7833,86.7667,19.62,45,5,3.77,IN,1670205760
318,luang prabang,19.8856,102.1347,24.73,70,9,1.01,LA,1670205697
319,trairi,-3.2778,-39.2689,26.26,76,93,6.19,BR,1670205663
320,flagstaff,35.1981,-111.6513,7.8,89,75,4.12,US,1670205620
321,sola,-13.8833,167.55,28.21,68,69,6.08,VU,1670205761
322,wabag,-5.4781,143.7021,18.85,77,90,1.61,PG,1670205762
323,nome,64.5011,-165.4064,0.09,98,100,14.26,US,1670205762
324,yar-sale,66.8333,70.8333,-7.47,88,100,5.2,RU,1670205763
325,holme,56.1138,10.1725,3.76,88,100,7.19,DK,1670205764
326,chipinge,-20.1883,32.6236,17.11,77,12,1.99,ZW,1670205764
327,shenandoah,30.4013,-91.0009,19.95,95,100,0.85,US,1670205764
328,poya,-21.35,165.15,29.88,67,82,2.87,NC,1670205765
329,amazar,53.858,120.875,-22.55,85,93,1.72,RU,1670205766
330,mut,36.6439,33.4389,10.35,59,2,1.39,TR,1670205766
331,fergus falls,46.283,-96.0776,-0.96,78,0,3.13,US,1670205767
332,gusinoye ozero,51.1144,106.2614,-20.31,91,40,1.61,RU,1670205767
333,sujangarh,27.7011,74.4649,13.87,34,0,2.0,IN,1670205768
334,baiyin,36.5583,104.2081,-2.48,37,87,1.03,CN,1670205768
335,doha,25.2867,51.5333,22.99,68,0,1.03,QA,1670205668
336,naze,28.3667,129.4833,19.51,88,97,6.29,JP,1670205472
337,waingapu,-9.6567,120.2641,29.51,63,98,2.55,ID,1670205515
338,alice springs,-23.7,133.8833,34.75,11,0,5.14,AU,1670205681
339,goderich,43.7501,-81.7165,3.28,50,100,12.6,CA,1670205770
340,hofn,64.2539,-15.2082,4.93,46,64,5.35,IS,1670205523
341,manggar,-2.8833,108.2667,27.33,78,100,0.48,ID,1670205771
342,mehamn,71.0357,27.8492,-5.05,79,35,7.2,NO,1670205771
343,saint-pierre,-21.3393,55.4781,23.28,53,0,3.09,RE,1670205771
344,sao filipe,14.8961,-24.4956,22.03,65,94,1.76,CV,1670205772
345,kutum,14.2,24.6667,15.15,30,50,3.76,SD,1670205772
346,victoria,22.2855,114.1577,19.03,77,100,7.6,HK,1670205680
347,manuk mangkaw,4.8,119.85,28.05,77,81,3.4,PH,1670205773
348,labuhan,-6.8844,112.2051,28.71,74,98,2.54,ID,1670205773
349,oktyabrskoye,43.0645,44.7417,-3.92,100,97,5.0,RU,1670205520
350,provideniya,64.3833,-173.3,0.52,99,100,5.4,RU,1670205774
351,petropavlovsk-kamchatskiy,53.0452,158.6483,-11.67,52,0,4.0,RU,1670205775
352,broome,42.2506,-75.833,0.37,68,0,3.6,US,1670205775
353,okha,53.5739,142.9478,-19.34,83,61,9.27,RU,1670205775
354,severnyy,50.677,36.5532,-11.98,79,0,4.0,RU,1670205776
355,tinskoy,56.1525,96.9161,-20.24,96,11,2.0,RU,1670205776
356,adrar,20.5022,-10.0711,21.05,23,2,1.76,MR,1670205777
357,mombaca,-5.7431,-39.6275,25.65,71,47,3.47,BR,1670205777
358,santa fe,-31.6333,-60.7,28.34,57,0,0.45,AR,1670205778
359,ialibu,-6.2821,143.9935,19.11,78,99,2.14,PG,1670205778
360,pudozh,61.8099,36.5345,-6.19,94,100,3.54,RU,1670205779
361,findlay,41.0442,-83.6499,-0.2,65,0,4.12,US,1670205723
362,petrolia,42.8668,-82.1498,0.43,46,37,7.33,CA,1670205780
363,chimbote,-9.0853,-78.5783,18.78,83,0,3.08,PE,1670205780
364,jhang,33.6748,72.6963,9.23,44,0,1.42,PK,1670205781
365,indramayu,-6.3264,108.32,28.22,71,100,0.67,ID,1670205781
366,nampula,-15.1165,39.2666,21.16,87,79,2.02,MZ,1670205781
367,kidal,18.4411,1.4078,23.91,16,91,5.6,ML,1670205782
368,murwara,23.85,80.4,14.32,59,9,1.53,IN,1670205782
369,san jeronimo,-11.9472,-75.2829,6.81,95,100,2.18,PE,1670205783
370,aitape,-3.1374,142.3475,29.33,73,100,3.73,PG,1670205784
371,new haven,41.4001,-72.9329,0.64,80,0,1.54,US,1670205784
372,saint anthony,45.0205,-93.218,0.05,60,0,5.14,US,1670205785
373,san antonio,29.4241,-98.4936,14.51,94,100,0.0,US,1670205489
374,banjar,-8.19,114.9675,30.16,67,47,1.32,ID,1670205786
375,talcahuano,-36.7167,-73.1167,13.18,81,0,5.41,CL,1670205786
376,impfondo,1.6381,18.0667,21.64,96,96,1.86,CG,1670205786
377,yueyang,29.3333,113.0919,4.48,86,100,2.98,CN,1670205787
378,ambon,-3.6954,128.1814,29.08,79,40,2.57,ID,1670205545
379,yantal,56.8471,105.2542,-15.78,91,100,6.37,RU,1670205788
380,chifeng,42.2683,118.9636,-8.85,34,0,5.26,CN,1670205788
381,manduria,40.4018,17.6335,14.99,89,1,4.52,IT,1670205789
382,nioro,13.35,-15.75,22.01,65,92,2.77,GM,1670205789
383,laguna,38.421,-121.4238,11.21,92,20,2.06,US,1670205790
384,pinotepa nacional,16.3167,-98.0167,22.74,71,0,1.36,MX,1670205790
385,daru,-9.0763,143.2092,30.2,59,64,3.73,PG,1670205791
386,itoman,26.1247,127.6694,25.22,79,40,3.6,JP,1670205791
387,baherden,38.4362,57.4316,-1.33,60,78,2.36,TM,1670205792
388,sistranda,63.7256,8.834,-0.02,74,100,9.57,NO,1670205792
389,agde,43.3108,3.4758,1.02,93,0,2.06,FR,1670205793
390,tromso,69.6496,18.957,-0.35,100,75,9.77,NO,1670205793
391,atar,20.5169,-13.0499,19.46,27,0,1.1,MR,1670205794
392,pokrovsk,48.282,37.1758,-7.79,62,8,6.83,UA,1670205795
393,sylvan lake,52.3168,-114.0853,-5.24,76,100,6.17,CA,1670205795
394,chicama,-7.8447,-79.1469,19.18,78,5,2.33,PE,1670205796
395,elban,50.1018,136.5094,-19.48,80,24,3.77,RU,1670205796
396,kabarnet,0.4919,35.743,11.24,90,82,1.58,KE,1670205797
397,muscatine,41.4667,-91.1335,1.05,49,0,4.63,US,1670205798
398,tanhacu,-14.0214,-41.2481,19.71,97,100,1.76,BR,1670205799
399,karratha,-20.7377,116.8463,36.0,24,7,4.22,AU,1670205799
400,mbarara,-0.608,30.65,15.24,94,88,0.34,UG,1670205800
401,longyan,25.1072,117.0225,11.27,88,100,1.86,CN,1670205801
402,acapulco,16.8634,-99.8901,26.9,78,0,3.6,MX,1670205801
403,harer,9.3094,42.1258,12.99,52,16,2.43,ET,1670205802
404,kupino,54.3663,77.2981,-19.9,96,92,2.07,RU,1670205530
405,cabedelo,-6.9811,-34.8339,25.6,78,33,5.72,BR,1670205803
406,tezu,27.9167,96.1667,20.53,32,0,0.74,IN,1670205803
407,bathsheba,13.2167,-59.5167,23.36,95,15,0.44,BB,1670205804
408,tynda,55.1667,124.7167,-20.55,86,100,1.26,RU,1670205805
409,tselinnoye,53.0833,85.6667,-17.05,94,100,0.78,RU,1670205805
410,johannesburg,-26.2023,28.0436,18.84,75,71,3.58,ZA,1670205806
411,vao,-22.6667,167.4833,25.23,88,96,9.01,NC,1670205806
412,betare oya,5.6,14.0833,20.37,33,45,0.92,CM,1670205807
413,sibu,2.3,111.8167,29.18,71,95,0.73,MY,1670205809
414,fairbanks,64.8378,-147.7164,-5.22,91,20,0.0,US,1670205809
415,auki,-8.7676,160.7034,28.14,77,100,2.7,SB,1670205809
416,gidole,5.65,37.3667,12.75,57,60,0.75,ET,1670205810
417,half moon bay,37.4636,-122.4286,13.36,86,100,4.63,US,1670205810
418,champerico,14.3,-91.9167,26.64,78,0,1.38,GT,1670205811
419,lebanon,36.2081,-86.2911,6.22,96,100,0.0,US,1670205812
420,mayumba,-3.432,10.6554,24.56,89,95,3.02,GA,1670205812
421,sassandra,4.95,-6.0833,25.36,87,51,2.41,CI,1670205813
422,cam ranh,11.9214,109.1591,28.98,74,40,4.12,VN,1670205813
423,rocky mountain house,52.3668,-114.9188,-7.64,84,100,5.12,CA,1670205814
424,prabumulih,-3.45,104.25,27.85,69,100,1.33,ID,1670205814
425,college,64.8569,-147.8028,-5.23,91,20,0.0,US,1670205815
426,balabac,7.9868,117.0645,28.11,76,100,3.45,PH,1670205815
427,voh,-20.9667,164.7,30.21,64,73,2.38,NC,1670205815
428,dukat,62.55,155.55,-20.48,98,100,0.91,RU,1670205816
429,jumla,29.2747,82.1838,5.32,18,0,2.39,NP,1670205816
430,beidao,34.5686,105.8933,1.74,48,0,0.44,CN,1670205817
431,konstantinovo,54.6628,29.2699,-8.22,82,100,5.41,BY,1670205817
432,yurino,56.2942,46.3039,-19.75,97,17,1.1,RU,1670205818
433,severobaykalsk,55.65,109.3167,-17.62,80,95,1.7,RU,1670205818
434,mansa,29.9833,75.3833,12.82,38,0,0.79,IN,1670205819
435,praia,14.9215,-23.5087,20.3,73,20,2.57,CV,1670205819
436,nyurba,63.2842,118.3319,-22.44,93,100,5.49,RU,1670205819
437,brae,60.3964,-1.353,5.61,73,97,4.21,GB,1670205820
438,sorong,-0.8833,131.25,27.27,80,100,3.18,ID,1670205820
439,krasnovishersk,60.4078,57.082,-19.68,99,36,1.1,RU,1670205821
440,balaghat,21.8,80.1833,16.23,58,64,1.98,IN,1670205821
441,hluti,-27.2167,31.6167,19.87,94,100,0.68,SZ,1670205822
442,nelson bay,-32.7167,152.15,28.03,69,1,6.26,AU,1670205822
443,plainview,40.7765,-73.4673,5.81,65,0,0.9,US,1670205823
444,ouesso,1.6136,16.0517,20.99,97,86,1.19,CG,1670205823
445,pevek,69.7008,170.3133,-17.49,73,100,4.25,RU,1670205824
446,zalantun,48.0,122.7167,-12.7,65,3,6.52,CN,1670205824
447,eyl,7.9803,49.8164,22.96,75,37,6.77,SO,1670205826
448,dongsheng,39.8161,109.9776,-8.21,40,0,2.5,CN,1670205632
449,vilhena,-12.7406,-60.1458,19.79,99,100,0.67,BR,1670205826
450,plunge,55.9114,21.8442,-0.67,94,100,3.34,LT,1670205827
451,xianyang,34.3378,108.7026,4.11,30,0,0.72,CN,1670205827
452,tak bai,6.2595,102.0546,27.82,89,100,1.82,TH,1670205828
453,raudeberg,61.9875,5.1352,3.26,73,100,4.81,NO,1670205828
454,tateyama,34.9833,139.8667,11.17,80,100,8.1,JP,1670205829
455,pedernales,18.0384,-71.744,24.33,74,0,2.22,DO,1670205829
456,kribi,2.95,9.9167,26.11,86,84,2.29,CM,1670205830
457,qaqortoq,60.7167,-46.0333,-5.8,65,100,3.48,GL,1670205830
458,coahuayana,18.7333,-103.6833,24.95,87,0,0.62,MX,1670205830
459,skovorodino,53.9833,123.9167,-23.23,91,56,1.37,RU,1670205831
460,komsomolskiy,40.4272,71.7189,0.4,86,75,4.12,UZ,1670205831
461,fare,-16.7,-151.0167,26.83,75,2,5.55,PF,1670205832
462,almeirim,-1.5233,-52.5817,23.51,94,100,2.04,BR,1670205832
463,te anau,-45.4167,167.7167,17.75,50,95,3.95,NZ,1670205833
464,kailua,21.4022,-157.7394,26.67,82,55,1.79,US,1670205833
465,llanes,43.4198,-4.7549,8.27,64,13,1.68,ES,1670205695
466,lomovka,53.9194,58.3672,-15.26,98,99,0.98,RU,1670205834
467,miri,4.4148,114.0089,28.43,75,100,1.21,MY,1670205834
468,paamiut,61.994,-49.6678,-3.5,74,58,9.13,GL,1670205835
469,jiangyou,31.7667,104.7167,6.79,81,55,0.83,CN,1670205835
470,muisne,0.6,-80.0333,23.54,77,93,3.71,EC,1670205835
471,dromolaxia,34.8761,33.586,15.4,94,0,2.57,CY,1670205836
472,rio gallegos,-51.6226,-69.2181,7.73,68,35,5.7,AR,1670205729
473,odienne,9.51,-7.5692,21.36,84,98,1.12,CI,1670205837
474,bara,10.3744,10.7288,23.59,23,3,4.4,NG,1670205837
475,xining,36.6167,101.7667,-4.53,45,0,0.55,CN,1670205838
476,junin,-34.5838,-60.9433,23.27,48,2,3.49,AR,1670205607
477,hobyo,5.3505,48.5268,26.43,68,93,8.01,SO,1670205839
478,faya,18.3851,42.4509,9.29,83,0,1.48,SA,1670205839
479,krasnoselkup,65.7,82.4667,-5.82,94,100,6.62,RU,1670205839
480,chala,-7.5833,31.2667,14.24,89,100,1.24,TZ,1670205840
481,codrington,-38.2667,141.9667,14.1,68,100,8.24,AU,1670205840
482,bilibino,68.0546,166.4372,-30.1,99,91,2.03,RU,1670205841
483,tocopilla,-22.092,-70.1979,19.58,67,1,0.66,CL,1670205841
484,rafraf,37.1904,10.1837,9.17,47,89,3.24,TN,1670205842
485,bela,25.9333,81.9833,15.11,51,2,0.88,IN,1670205842
486,zaltan,32.947,11.8665,17.35,50,6,2.72,LY,1670205843
487,north bend,43.4065,-124.2243,7.87,94,0,3.09,US,1670205844
488,tambacounda,13.7539,-13.7586,25.54,32,76,1.5,SN,1670205844
489,ipanguacu,-5.4983,-36.855,25.77,67,5,6.28,BR,1670205845
490,camalu,30.85,-116.0667,15.78,85,100,2.82,MX,1670205845
491,talara,-4.5772,-81.2719,19.18,88,27,4.39,PE,1670205846
492,salalah,17.0151,54.0924,23.05,78,20,2.57,OM,1670205846
493,sinnamary,5.3833,-52.95,24.53,87,100,1.69,GF,1670205847
494,vardo,70.3705,31.1107,-3.01,80,100,7.72,NO,1670205847
495,taoudenni,22.6783,-3.9836,25.36,21,79,4.92,ML,1670205848
496,greeneville,36.1632,-82.831,3.01,95,0,0.0,US,1670205848
497,celestun,20.8667,-90.4,24.75,78,10,6.91,MX,1670205849
498,srednekolymsk,67.45,153.6833,-43.95,100,63,1.32,RU,1670205849
499,hovd,48.0056,91.6419,-16.13,76,100,0.91,MN,1670205850
500,ivanovka,42.8878,75.085,-4.65,82,100,0.22,KG,1670205688
501,nizhniy tsasuchey,50.5167,115.1333,-15.53,77,10,4.56,RU,1670205851
502,weymouth,42.2209,-70.9398,2.09,75,0,0.89,US,1670205850
503,turgenevo,54.8455,46.3297,-16.4,93,25,1.58,RU,1670205851
504,argentan,48.75,-0.0167,2.35,84,100,1.02,FR,1670205852
505,aktash,50.3,87.7333,-20.32,90,99,1.12,RU,1670205852
506,lielvarde,56.7207,24.8074,-1.99,93,99,2.69,LV,1670205853
507,guaruja,-23.9931,-46.2564,24.74,82,100,2.17,BR,1670205853
508,mayskiy,47.6931,40.1025,-10.33,61,9,6.76,RU,1670205854
509,chernyshkovskiy,48.4219,42.2308,-8.77,52,0,4.88,RU,1670205855
510,la ronge,55.1001,-105.2842,-16.65,88,100,7.29,CA,1670205856
511,hamilton,39.1834,-84.5333,1.63,59,2,1.59,US,1670205504
512,caramay,10.1815,119.236,28.04,82,100,4.17,PH,1670205856
513,santa marta,11.2408,-74.199,27.16,74,40,5.81,CO,1670205597
514,lata,40.1629,-8.3327,10.04,78,100,4.58,PT,1670205857
515,bachaquero,9.9694,-71.1494,24.11,85,75,3.47,VE,1670205857
516,tikrit,34.6071,43.6782,13.88,55,0,4.06,IQ,1670205858
517,katete,-0.7818,29.7544,14.76,97,100,1.25,UG,1670205858
518,kangaatsiaq,68.3065,-53.4641,-2.58,77,100,2.08,GL,1670205859
519,mayo,38.8876,-76.5119,2.97,80,0,0.0,US,1670205860
520,kulhudhuffushi,6.6221,73.07,26.14,77,100,1.37,MV,1670205860
521,conceicao do araguaia,-8.2578,-49.2647,22.93,92,100,0.91,BR,1670205861
522,lincoln,40.8,-96.667,2.79,50,97,1.34,US,1670205356
523,san cristobal,7.7669,-72.225,17.65,98,100,1.52,VE,1670205862
524,ixtapa,20.7,-105.2,25.68,88,40,0.0,MX,1670205862
525,buala,-8.145,159.5921,29.13,73,100,4.16,SB,1670205863
526,sungairaya,0.7,108.9,29.02,69,90,0.74,ID,1670205863
527,leo,11.1,-2.1,24.66,30,71,3.07,BF,1670205864
528,northam,51.0333,-4.2167,4.66,74,100,5.54,GB,1670205829
529,sompeta,18.9333,84.6,22.24,74,5,2.02,IN,1670205865
530,atikokan,48.7555,-91.6216,-6.27,91,100,4.69,CA,1670205865
531,zhangjiakou,40.81,114.8794,-7.56,29,0,2.48,CN,1670205866
532,harper,4.375,-7.7169,25.68,86,77,3.39,LR,1670205866
533,florianopolis,-27.6146,-48.5012,22.57,94,75,1.03,BR,1670205629
534,ha tinh,18.3333,105.9,18.58,93,100,5.74,VN,1670205867
535,eenhana,-17.4667,16.3333,23.72,32,95,3.08,NA,1670205868
536,sahibganj,25.25,87.65,16.94,43,4,2.04,IN,1670205868
537,kaka,37.3482,59.6143,-1.24,47,18,1.58,TM,1670205869
538,palimbang,6.2106,124.1894,29.71,67,92,1.62,PH,1670205870
539,alta floresta,-9.8756,-56.0861,21.35,98,94,1.29,BR,1670205870
540,whitehorse,60.7161,-135.0538,-8.28,92,62,0.89,CA,1670205871
541,waipawa,-41.4122,175.5153,14.06,77,98,3.71,NZ,1670205871
542,westport,41.1415,-73.3579,3.75,66,0,1.54,US,1670205755
543,monrovia,6.3005,-10.7969,25.75,81,82,1.5,LR,1670205872
544,sechura,-5.5569,-80.8222,19.16,81,46,5.15,PE,1670205873
545,port lincoln,-34.7333,135.8667,18.28,54,50,6.06,AU,1670205873
546,meadow lake,34.8014,-106.5436,11.49,94,100,1.78,US,1670205874
547,caconda,-13.7333,15.0667,15.03,93,11,1.65,AO,1670205603
548,balykshi,47.0667,51.8667,-18.0,78,0,2.0,KZ,1670205874
549,mahibadhoo,3.7833,72.9667,26.36,79,86,2.9,MV,1670205875
550,troy,42.6056,-83.1499,0.31,59,0,2.24,US,1670205774
551,erzurum,40.0,41.5,-0.18,89,83,1.5,TR,1670205876
552,shiraz,29.6036,52.5388,7.69,76,75,0.0,IR,1670205876
553,praia da vitoria,38.7333,-27.0667,13.2,86,92,3.37,PT,1670205876
554,nalut,30.3333,10.85,16.38,28,3,4.01,LY,1670205877
555,vigrestad,58.5667,5.7,-2.8,59,2,2.53,NO,1670205877
556,kodinsk,58.6881,99.1844,-16.02,94,100,4.29,RU,1670205878
557,mangochi,-14.4782,35.2645,24.09,64,99,1.35,MW,1670205878
558,tikhvin,59.6451,33.5294,-5.99,94,100,4.22,RU,1670205879
